[
  {
    "id": "1101",
    "province_id": "11",
    "name": "Kab. Aceh Selatan",
    "coordinates": {
      "lat": "4.695135",
      "lng": "96.7493993"
    },
    "google_place_id": "ChIJvcR8UN-bOTARYMogsoCdAwE"
  },
  {
    "id": "1102",
    "province_id": "11",
    "name": "Kab. Aceh Tenggara",
    "coordinates": {
      "lat": "4.695135",
      "lng": "96.7493993"
    },
    "google_place_id": "ChIJvcR8UN-bOTARYMogsoCdAwE"
  },
  {
    "id": "1103",
    "province_id": "11",
    "name": "Kab. Aceh Timur",
    "coordinates": {
      "lat": "4.695135",
      "lng": "96.7493993"
    },
    "google_place_id": "ChIJvcR8UN-bOTARYMogsoCdAwE"
  },
  {
    "id": "1104",
    "province_id": "11",
    "name": "Kab. Aceh Tengah",
    "coordinates": {
      "lat": "4.695135",
      "lng": "96.7493993"
    },
    "google_place_id": "ChIJvcR8UN-bOTARYMogsoCdAwE"
  },
  {
    "id": "1105",
    "province_id": "11",
    "name": "Kab. Aceh Barat",
    "coordinates": {
      "lat": "4.695135",
      "lng": "96.7493993"
    },
    "google_place_id": "ChIJvcR8UN-bOTARYMogsoCdAwE"
  },
  {
    "id": "1106",
    "province_id": "11",
    "name": "Kab. Aceh Besar",
    "coordinates": {
      "lat": "4.695135",
      "lng": "96.7493993"
    },
    "google_place_id": "ChIJvcR8UN-bOTARYMogsoCdAwE"
  },
  {
    "id": "1107",
    "province_id": "11",
    "name": "Kab. Pidie",
    "coordinates": {
      "lat": "5.0742659",
      "lng": "95.940971"
    },
    "google_place_id": "ChIJL2r5kieiQDARgNEgsoCdAwM"
  },
  {
    "id": "1108",
    "province_id": "11",
    "name": "Kab. Aceh Utara",
    "coordinates": {
      "lat": "4.695135",
      "lng": "96.7493993"
    },
    "google_place_id": "ChIJvcR8UN-bOTARYMogsoCdAwE"
  },
  {
    "id": "1109",
    "province_id": "11",
    "name": "Kab. Simeulue",
    "coordinates": {
      "lat": "2.6439724",
      "lng": "96.0255738"
    },
    "google_place_id": "ChIJj5GaVK6zPDARANIgsoCdAwM"
  },
  {
    "id": "1110",
    "province_id": "11",
    "name": "Kab. Aceh Singkil",
    "coordinates": {
      "lat": "4.695135",
      "lng": "96.7493993"
    },
    "google_place_id": "ChIJvcR8UN-bOTARYMogsoCdAwE"
  },
  {
    "id": "1111",
    "province_id": "11",
    "name": "Kab. Bireuen",
    "coordinates": {
      "lat": "5.1086446",
      "lng": "96.663812"
    },
    "google_place_id": "ChIJrz-uBMdZRzARUMsgsoCdAwM"
  },
  {
    "id": "1112",
    "province_id": "11",
    "name": "Kab. Aceh Barat Daya",
    "coordinates": {
      "lat": "3.7963426",
      "lng": "97.0068393"
    },
    "google_place_id": "ChIJmxvZlE5jOTAR0MwgsoCdAwM"
  },
  {
    "id": "1113",
    "province_id": "11",
    "name": "Kab. Gayo Lues",
    "coordinates": {
      "lat": "3.955165",
      "lng": "97.3516558"
    },
    "google_place_id": "ChIJ63zrqOmWOTARAMsgsoCdAwM"
  },
  {
    "id": "1114",
    "province_id": "11",
    "name": "Kab. Aceh Jaya",
    "coordinates": {
      "lat": "4.695135",
      "lng": "96.7493993"
    },
    "google_place_id": "ChIJvcR8UN-bOTARYMogsoCdAwE"
  },
  {
    "id": "1115",
    "province_id": "11",
    "name": "Kab. Nagan Raya",
    "coordinates": {
      "lat": "4.1248406",
      "lng": "96.4929797"
    },
    "google_place_id": "ChIJNyiO4RExOTAR0M4gsoCdAwM"
  },
  {
    "id": "1116",
    "province_id": "11",
    "name": "Kab. Aceh Tamiang",
    "coordinates": {
      "lat": "4.695135",
      "lng": "96.7493993"
    },
    "google_place_id": "ChIJvcR8UN-bOTARYMogsoCdAwE"
  },
  {
    "id": "1117",
    "province_id": "11",
    "name": "Kab. Bener Meriah",
    "coordinates": {
      "lat": "4.8317115",
      "lng": "96.7253164"
    },
    "google_place_id": "ChIJJZWjCRS9ODARwv3mCzNGydc"
  },
  {
    "id": "1118",
    "province_id": "11",
    "name": "Kab. Pidie Jaya",
    "coordinates": {
      "lat": "5.1548063",
      "lng": "96.195132"
    },
    "google_place_id": "ChIJs8ryYn2mQDARtrG38oBW4hk"
  },
  {
    "id": "1171",
    "province_id": "11",
    "name": "Kota Banda Aceh",
    "coordinates": {
      "lat": "5.5482904",
      "lng": "95.3237559"
    },
    "google_place_id": "ChIJ37w95no3QDARkMsgsoCdAwM"
  },
  {
    "id": "1172",
    "province_id": "11",
    "name": "Kota Sabang",
    "coordinates": {
      "lat": "5.8926053",
      "lng": "95.3237608"
    },
    "google_place_id": "ChIJ9chDvw7GQTAR6E1-GwX9O7g"
  },
  {
    "id": "1173",
    "province_id": "11",
    "name": "Kota Lhokseumawe",
    "coordinates": {
      "lat": "5.1811638",
      "lng": "97.1413222"
    },
    "google_place_id": "ChIJE7byZ-l4RzARIMwgsoCdAwM"
  },
  {
    "id": "1174",
    "province_id": "11",
    "name": "Kota Langsa",
    "coordinates": {
      "lat": "4.4725348",
      "lng": "97.9756343"
    },
    "google_place_id": "ChIJo13gOQSFNzAREMwgsoCdAwM"
  },
  {
    "id": "1175",
    "province_id": "11",
    "name": "Kota Subulussalam",
    "coordinates": {
      "lat": "2.7121164",
      "lng": "97.9157099"
    },
    "google_place_id": "ChIJPQrhvbZyMDAR6TgK6g_IQKQ"
  }
]
